[
  {
    "id": 1,
    "name": "Центральная Аптека",
    "type": "pharmacy",
    "lat": 54.1930,
    "lng": 37.6170,
    "address": "пр. Ленина, 15"
  },
  {
    "id": 2,
    "name": "Областная Больница",
    "type": "hospital",
    "lat": 54.1850,
    "lng": 37.6300,
    "address": "ул. Яблочкова, 1"
  },
  {
    "id": 3,
    "name": "Здоровое Питание",
    "type": "healthy_food",
    "lat": 54.1950,
    "lng": 37.6100,
    "address": "ул. Советская, 10"
  },
  {
    "id": 4,
    "name": "Фитнес Клуб 'Сила'",
    "type": "gym",
    "lat": 54.2000,
    "lng": 37.6000,
    "address": "ул. Демонстрации, 5"
  },
  {
    "id": 5,
    "name": "Стоматология 'Улыбка'",
    "type": "dentist",
    "lat": 54.1900,
    "lng": 37.6250,
    "address": "ул. Октябрьская, 22"
  },
  {
    "id": 6,
    "name": "Поликлиника №1",
    "type": "clinic",
    "lat": 54.1880,
    "lng": 37.6150,
    "address": "ул. Первомайская, 10"
  },
  {
    "id": 7,
    "name": "Лаборатория 'Инвитро'",
    "type": "lab",
    "lat": 54.1970,
    "lng": 37.6200,
    "address": "пр. Ленина, 45"
  },
  {
    "id": 8,
    "name": "Центр здоровья",
    "type": "health_center",
    "lat": 54.1920,
    "lng": 37.6080,
    "address": "ул. Советская, 5"
  },
  {
    "id": 9,
    "name": "Алкомаркет 'Красное и Белое'",
    "type": "alcohol",
    "lat": 54.1960,
    "lng": 37.6220,
    "address": "ул. Металлургов, 12"
  },
  {
    "id": 10,
    "name": "Аптека 'Ригла'",
    "type": "pharmacy",
    "lat": 54.1940,
    "lng": 37.6050,
    "address": "ул. Болдина, 8"
  }
]